[{"name":"Abakaliki","lat":6.3162,"lon":8.1169},{"name":"Abeokuta","lat":7.15,"lon":3.35},{"name":"Ado-Ekiti","lat":7.621,"lon":5.2215},{"name":"Akure","lat":7.2526,"lon":5.1931},{"name":"Akwa","lat":6.2101,"lon":7.0741},{"name":"Asaba","lat":6.2006,"lon":6.7338},{"name":"Bauchi","lat":10.3089,"lon":9.8402},{"name":"Benin City","lat":6.335,"lon":5.6275},{"name":"Birnin Kebbi","lat":12.4539,"lon":4.1975},{"name":"Calabar","lat":4.9667,"lon":8.3333},{"name":"Damaturu","lat":11.747,"lon":11.9608},{"name":"Dutse","lat":11.7594,"lon":9.3392},{"name":"Enugu","lat":6.4402,"lon":7.4943},{"name":"Gombe","lat":10.2897,"lon":11.1673},{"name":"Gusau","lat":12.1628,"lon":6.6613},{"name":"Ibadan","lat":7.4333,"lon":3.9167},{"name":"Ikeja","lat":6.5942,"lon":3.3375},{"name":"Ilorin","lat":8.5,"lon":4.55},{"name":"Jalingo","lat":8.8833,"lon":11.3667},{"name":"Jos","lat":9.8667,"lon":8.9},{"name":"Kaduna","lat":10.5222,"lon":7.4383},{"name":"Kano","lat":12.05,"lon":8.5167},{"name":"Katsina","lat":12.9894,"lon":7.6006},{"name":"Lafia","lat":8.4833,"lon":8.5167},{"name":"Lagos","lat":6.4531,"lon":3.3958},{"name":"Lokoja","lat":7.8024,"lon":6.743},{"name":"Maiduguri","lat":11.8464,"lon":13.1603},{"name":"Makurdi","lat":7.7411,"lon":8.5121},{"name":"Minna","lat":9.6139,"lon":6.5569},{"name":"Osogbo","lat":7.7667,"lon":4.5667},{"name":"Owerri","lat":5.4833,"lon":7.0304},{"name":"Port Harcourt","lat":4.7774,"lon":7.0134},{"name":"Sokoto","lat":13.048,"lon":5.2143},{"name":"Umuahia","lat":5.5263,"lon":7.4896},{"name":"Uyo","lat":5.0333,"lon":7.9266},{"name":"Yenagoa","lat":4.9247,"lon":6.2642},{"name":"Yola","lat":9.2,"lon":12.4833}]